,Name,Age,Hometown,Boarded,Lifeboat,Survived,latitude,longitude,altitude
0,"Gwinn, Mr. William Logan",37,"New York City, US",Southampton,,False,40.7127281,-74.0060152,0.0
1,"March, Mr. John Starr",50,"Newark, New Jersey, US",Southampton,,False,40.735657,-74.1723667,0.0
2,"Smith, Mr. John Richard ""Jago""",35,"Truro, England",Southampton,,False,50.2627515,-5.0520467,0.0
3,"Williamson, Mr. James Bertram",35,"Dublin, Ireland",Southampton,,False,53.3497645,-6.2602732,0.0
4,"Woody, Mr. Oscar Scott",41,"Clifton, Virginia, US",Southampton,,False,38.7802131,-77.3866868,0.0
